City_ID,City,Lat,Lng,Max Temp,Humidity,Cloudiness,Wind Speed,Country,Date
0,ardakan,32.31,54.0175,300.66,14,1,4.48,IR,1683044891
1,georgetown,5.4112,100.3354,300.11,93,20,1.54,MY,1683044892
2,lepsy,46.235,78.9456,279.83,31,55,8.85,KZ,1683044892
3,wailua homesteads,22.0669,-159.378,294.59,90,40,1.54,US,1683044892
4,fuglafjordur,62.244,-6.814,278.41,67,100,3.28,FO,1683044893
5,invercargill,-46.4,168.35,287.39,93,100,1.01,NZ,1683044893
6,grytviken,-54.2811,-36.5092,274.19,87,99,5.82,GS,1683044893
7,avarua,-21.2078,-159.775,295.18,83,75,3.6,CK,1683044893
8,egbe,8.2167,5.5167,307.66,31,98,2.79,NG,1683044894
9,west island,-12.1568,96.8225,300.14,89,40,7.2,CC,1683044894
10,college,64.8569,-147.8028,275.98,85,75,2.06,US,1683044894
11,adamstown,-25.066,-130.1015,298.14,74,6,7.35,PN,1683044895
12,port-aux-francais,-49.35,70.2167,277.03,80,86,8.81,TF,1683044895
13,byron bay,-28.65,153.6167,287.43,64,100,2.97,AU,1683044689
14,tiksi,71.6872,128.8694,259.29,97,96,3.13,RU,1683044896
15,khagrachhari,23.1,91.9667,297.53,64,0,0.96,BD,1683044896
16,margaret river,-33.95,115.0667,284.82,87,0,4.03,AU,1683044897
17,olonkinbyen,70.9221,-8.7187,271.31,56,42,1.39,SJ,1683044897
18,bilibino,68.0546,166.4372,253.17,93,40,2.1,RU,1683044898
19,ancud,-41.8697,-73.8203,282.92,72,21,1.83,CL,1683044898
20,el granada,37.5027,-122.4694,285.5,86,0,4.12,US,1683044899
21,papatowai,-46.5619,169.4708,287.38,86,100,1.93,NZ,1683044899
22,isafjordur,66.0755,-23.124,278.17,56,20,6.17,IS,1683044899
23,'ain benian,36.8028,2.9219,297.18,55,21,5.26,DZ,1683044900
24,ushuaia,-54.8,-68.3,280.96,71,75,2.06,AR,1683044900
25,qaqortoq,60.7167,-46.0333,277.85,58,99,1.1,GL,1683044900
26,bushehr,28.9684,50.8385,301.2,44,0,9.77,IR,1683044901
27,cadiz,36.5,-5.75,303.83,22,100,6.49,ES,1683044901
28,minas de marcona,-15.2119,-75.1103,292.98,61,17,7.67,PE,1683044901
29,bredasdorp,-34.5322,20.0403,288.84,80,95,2.71,ZA,1683044901
30,puerto ayora,-0.7393,-90.3518,304.13,85,7,1.79,EC,1683044902
31,kiunga,-6.1219,141.2906,296.7,100,100,0.95,PG,1683044902
32,halifax,44.6453,-63.5724,280.2,92,100,6.71,CA,1683044717
33,port lincoln,-34.7333,135.8667,289.14,73,28,8.68,AU,1683044903
34,bethel,41.3712,-73.414,284.64,83,75,4.12,US,1683044903
35,usogorsk,63.4106,48.6872,280.82,59,14,2.26,RU,1683044903
36,st. john's,47.5649,-52.7093,280.53,76,75,7.2,CA,1683044648
37,bandrele,-12.9067,45.1914,301.01,74,0,5.66,YT,1683044904
38,ilulissat,69.2167,-51.1,275.16,55,0,2.57,GL,1683044904
39,severo-yeniseyskiy,60.3725,93.0408,271.4,94,100,1.69,RU,1683044904
40,sitangkai,4.6628,119.3928,302.41,70,12,0.87,PH,1683044905
41,waitangi,-43.9535,-176.5597,286.94,91,11,2.24,NZ,1683044905
42,port elizabeth,-33.918,25.5701,292.77,80,0,5.66,ZA,1683044905
43,comandante fontana,-25.3345,-59.6821,287.48,96,100,3.26,AR,1683044906
44,sai buri,6.7013,101.6168,300.01,85,91,3.08,TH,1683044906
45,jamestown,42.097,-79.2353,278.92,87,100,6.17,US,1683044779
46,albany,42.6001,-73.9662,285.02,82,99,0.89,US,1683044803
47,arraial do cabo,-22.9661,-42.0278,301.13,65,20,4.63,BR,1683044907
48,iqaluit,63.7506,-68.5145,274.0,86,100,11.32,CA,1683044907
49,badger,64.8,-147.5333,275.93,85,75,2.06,US,1683044908
50,lazaro cardenas,17.9583,-102.2,303.16,43,0,2.45,MX,1683044641
51,boguchany,58.3814,97.4531,272.71,95,99,2.66,RU,1683044908
52,cedeira,43.6797,-8.0209,296.48,75,100,7.85,ES,1683044909
53,blackmans bay,-43.0167,147.3167,279.0,93,75,1.81,AU,1683044909
54,sterling,39.0062,-77.4286,285.94,75,100,1.54,US,1683044909
55,bel ombre,-4.6167,55.4167,299.06,89,75,3.09,SC,1683044910
56,puerto natales,-51.7236,-72.4875,285.4,50,75,17.49,CL,1683044910
57,puerto cortez,15.8333,-87.95,307.15,67,100,1.13,HN,1683044910
58,portland,45.5234,-122.6762,287.93,78,75,1.54,US,1683044859
59,vorgashor,67.5833,63.95,274.13,96,100,9.01,RU,1683044911
60,tazovsky,67.4667,78.7,271.77,78,100,8.95,RU,1683044911
61,borger,52.9233,6.7931,283.73,64,90,5.01,NL,1683044911
62,laibin,23.7,109.2667,297.16,89,69,3.78,CN,1683044911
63,bulata,9.8599,122.4016,300.89,82,99,5.6,PH,1683044912
64,praia da vitoria,38.7333,-27.0667,293.29,52,20,8.12,PT,1683044912
65,la sarre,48.8002,-79.1996,281.57,67,100,5.58,CA,1683044912
66,alo,7.4178,6.7371,307.39,45,60,3.12,NG,1683044913
67,utrik,11.2278,169.8474,299.99,80,100,10.12,MH,1683044913
68,akrehamn,59.2667,5.1833,282.59,66,75,6.17,NO,1683044913
69,gros islet,14.0667,-60.95,304.05,70,40,5.66,LC,1683044914
70,nishinoomote,30.7333,131.0,292.21,57,4,5.56,JP,1683044914
71,santa branca,-23.3967,-45.8839,298.97,61,40,1.03,BR,1683044914
72,constantia,44.1833,28.65,287.53,74,0,4.61,RO,1683044646
73,anadyr,64.75,177.4833,258.43,92,0,4.0,RU,1683044915
74,la ronge,55.1001,-105.2842,292.29,22,75,4.63,CA,1683044915
75,vilyuchinsk,52.9306,158.4028,275.3,89,98,2.15,RU,1683044915
76,poronaysk,49.2167,143.1167,279.91,73,100,1.34,RU,1683044915
77,karak city,31.1637,35.762,292.62,27,0,4.22,JO,1683044916
78,amqui,48.4638,-67.4313,278.86,87,100,5.79,CA,1683044916
79,uturoa,-16.7333,-151.4333,300.8,79,100,6.81,PF,1683044916
80,hithadhoo,-0.6,73.0833,300.49,78,100,6.86,MV,1683044917
81,stanley,54.868,-1.6985,285.21,75,40,3.09,GB,1683044917
82,palu,-0.8917,119.8707,298.52,95,99,1.12,ID,1683044917
83,sake,-1.5736,29.045,291.95,92,95,0.88,CD,1683044918
84,bubaque,11.2833,-15.8333,299.24,79,46,4.54,GW,1683044919
85,gleize,45.9908,4.7007,293.29,45,2,0.45,FR,1683044919
86,fort mcmurray,56.7268,-111.381,291.92,39,0,2.06,CA,1683044919
87,betio village,1.358,172.9211,301.17,79,100,4.49,KI,1683044920
88,lisala,2.15,21.5167,296.74,92,97,2.37,CD,1683044921
89,port mathurin,-19.6833,63.4167,299.19,76,9,5.01,MU,1683044921
90,kodiak,57.79,-152.4072,276.88,81,100,0.0,US,1683044922
91,geraldton,-28.7667,114.6,286.38,76,32,4.63,AU,1683044922
92,taoudenni,22.6783,-3.9836,316.78,4,0,3.69,ML,1683044922
93,pitkyaranta,61.5734,31.4792,280.0,76,100,7.0,RU,1683044923
94,masterton,-40.9597,175.6575,289.2,86,95,2.4,NZ,1683044923
95,susuman,62.7833,148.1667,264.1,94,100,1.16,RU,1683044923
96,djenne,13.9061,-4.5533,314.23,13,27,2.17,ML,1683044923
97,hawaiian paradise park,19.5933,-154.9731,293.72,89,0,3.6,US,1683044924
98,codrington,-38.2667,141.9667,285.74,83,93,12.4,AU,1683044924
99,champerico,14.3,-91.9167,306.45,61,94,3.13,GT,1683044924
100,tralee,52.2704,-9.7026,287.29,67,40,5.66,IE,1683044925
101,barcelos,41.5388,-8.6151,303.66,43,100,1.66,PT,1683044843
102,mount pearl,47.5166,-52.7813,280.07,74,75,7.2,CA,1683044925
103,talnakh,69.4865,88.3972,268.82,89,100,4.2,RU,1683044925
104,petropavlovsk-kamchatsky,53.0452,158.6483,274.48,87,75,2.0,RU,1683044926
105,zemio,5.0314,25.1361,303.04,40,81,0.11,CF,1683044926
106,carnarvon,-24.8667,113.6333,296.56,61,56,4.68,AU,1683044926
107,taro,-8.3862,115.28,297.15,97,90,0.3,ID,1683044926
108,galappo,-4.2667,35.85,293.81,70,85,1.45,TZ,1683044927
109,granja,-3.1203,-40.8261,303.93,61,20,2.13,BR,1683044927
110,glace bay,46.1969,-59.957,277.09,93,100,10.29,CA,1683044882
111,cabo san lucas,22.8909,-109.9124,299.92,51,75,4.63,MX,1683044912
112,yellowknife,62.456,-114.3525,277.44,81,75,1.54,CA,1683044729
113,solsona,41.994,1.5171,298.68,14,60,3.04,ES,1683044928
114,tapes,-30.6733,-51.3958,290.66,94,100,5.1,BR,1683044928
115,sitka,57.0531,-135.33,285.09,71,100,6.17,US,1683044929
116,east london,-33.0153,27.9116,292.67,88,0,2.06,ZA,1683044929
117,vadso,70.0744,29.7487,272.64,64,20,12.35,NO,1683044930
118,new norfolk,-42.7826,147.0587,279.66,75,96,0.77,AU,1683044930
119,baro,8.6,6.4167,306.89,39,99,5.95,NG,1683044930
120,nemuro,43.3236,145.575,277.72,90,1,6.59,JP,1683044930
121,melekeok village,7.4957,134.6367,301.16,79,90,4.47,PW,1683044931
122,saipan,15.1355,145.701,300.54,100,40,5.66,MP,1683044931
123,pachino,36.7186,15.0907,290.85,71,100,8.56,IT,1683044931
124,flying fish cove,-10.4217,105.6791,297.97,100,7,0.0,CX,1683044932
125,birobidzhan,48.8,132.95,289.12,53,100,3.79,RU,1683044652
126,alice springs,-23.7,133.8833,282.9,76,53,3.42,AU,1683044637
127,naracoorte,-36.9579,140.7383,285.97,81,74,9.65,AU,1683044932
128,umm kaddadah,13.6017,26.6876,308.32,9,17,3.32,SD,1683044933
129,santa terezinha,-29.9002,-50.0904,293.82,94,100,5.42,BR,1683044933
130,thompson,55.7435,-97.8558,283.24,37,75,5.14,CA,1683044742
131,nizhnesortymskiy,62.4397,71.7603,274.68,79,100,6.77,RU,1683044933
132,itoman,26.1247,127.6694,296.16,73,100,7.72,JP,1683044934
133,bamboo flat,11.7,92.7167,303.19,72,100,3.39,IN,1683044934
134,kavaratti,10.5669,72.642,302.11,67,22,4.28,IN,1683044934
135,dryden,49.7833,-92.7503,280.31,33,0,5.66,CA,1683044935
136,kruisfontein,-34.0033,24.7314,288.34,80,100,3.93,ZA,1683044935
137,kununurra,-15.7667,128.7333,291.14,72,36,1.54,AU,1683044935
138,baruun-urt,46.6806,113.2792,280.98,28,54,5.41,MN,1683044935
139,san julian,21.0167,-102.1667,296.68,14,42,6.09,MX,1683044936
140,pelabuhanratu,-6.9875,106.5514,299.75,87,86,0.71,ID,1683044936
141,ambon,-3.6954,128.1814,298.23,94,75,2.57,ID,1683044848
142,nar'yan-mar,67.6713,53.087,274.83,80,99,10.92,RU,1683044936
143,taltal,-25.4,-70.4833,291.89,71,7,2.28,CL,1683044937
144,dalbandin,28.8947,64.4101,303.18,16,37,1.22,PK,1683044937
145,iskateley,67.6803,53.1512,274.77,80,99,10.89,RU,1683044937
146,huarmey,-10.0681,-78.1522,298.04,79,97,4.55,PE,1683044938
147,nadym,65.5333,72.5167,275.15,79,100,10.89,RU,1683044938
148,edinburgh of the seven seas,-37.0676,-12.3116,290.5,80,99,10.06,SH,1683044938
149,kenora,49.8167,-94.4337,282.69,25,20,5.66,CA,1683044938
150,holualoa,19.6228,-155.9522,294.06,80,0,3.09,US,1683044939
151,malpica,43.3228,-8.8105,299.2,61,100,2.37,ES,1683044939
152,lihue,21.9789,-159.3672,294.92,90,40,1.54,US,1683044770
153,ust-nera,64.5667,143.2,267.19,96,100,0.78,RU,1683044939
154,ulysses,37.5814,-101.3552,291.69,34,0,6.17,US,1683044940
155,worgl,47.4833,12.0667,286.5,94,100,0.48,AT,1683044941
156,lebu,-37.6167,-73.65,286.11,70,0,7.49,CL,1683044941
157,st. paul,44.9444,-93.0933,285.58,29,0,8.23,US,1683044941
158,al lagowa,11.4,29.1333,309.36,8,35,4.4,SD,1683044941
159,kralendijk,12.15,-68.2667,304.14,62,20,9.77,BQ,1683044942
160,kangundo,-1.2979,37.3471,294.34,95,97,2.34,KE,1683044942
161,puerto baquerizo moreno,-0.9,-89.6,301.7,79,40,5.14,EC,1683044942
162,longyearbyen,78.2186,15.6401,264.06,57,0,0.0,SJ,1683044944
163,kinkala,-4.3614,14.7644,298.11,86,99,1.25,CG,1683044944
164,lata,40.1629,-8.3327,304.77,34,100,2.13,PT,1683044945
165,pauini,-7.7136,-66.9764,302.32,72,100,1.89,BR,1683044945
166,sechura,-5.5569,-80.8222,301.07,62,18,4.34,PE,1683044945
167,lycksele,64.5954,18.6735,282.08,27,40,5.14,SE,1683044946
168,kourou,5.1552,-52.6478,303.18,61,48,4.09,GF,1683044946
169,tolanaro,-25.0319,46.9987,295.19,64,75,1.03,MG,1683044947
170,magadan,59.5667,150.8,269.56,84,81,1.03,RU,1683044947
171,dossor,47.5272,52.9811,300.24,11,100,11.1,KZ,1683044947
172,warman,52.3168,-106.5679,289.1,31,40,4.63,CA,1683044948
173,da nang,16.0678,108.2208,301.14,83,20,2.06,VN,1683044948
174,tasqala,51.1167,50.3167,290.47,78,100,7.88,KZ,1683044948
175,qianzhou,28.3167,109.7167,292.59,96,100,0.97,CN,1683044949
176,hassi messaoud,31.6804,6.0729,304.07,18,0,1.54,DZ,1683044949
177,khatra,22.9833,86.85,301.26,57,20,6.58,IN,1683044949
178,gisborne,-38.6533,178.0042,289.81,96,98,2.01,NZ,1683044950
179,kudahuvadhoo,2.6708,72.8944,299.16,88,100,7.71,MV,1683044950
180,great falls,47.5002,-111.3008,288.52,50,0,2.57,US,1683044845
181,chernyshevskiy,63.0128,112.4714,267.76,93,83,2.4,RU,1683044951
182,dalandzadgad,43.5708,104.425,287.12,22,88,0.65,MN,1683044951
183,atafu village,-8.5421,-172.5159,302.1,72,82,7.04,TK,1683044951
184,sars,56.5502,57.1366,289.46,49,37,2.42,RU,1683044951
185,westport,41.1415,-73.3579,285.22,80,100,4.63,US,1683044952
186,lensk,60.7253,114.9278,272.01,97,100,1.66,RU,1683044952
187,kalmunai,7.4167,81.8167,299.11,86,100,1.69,LK,1683044952
188,noumea,-22.2763,166.4572,298.71,99,85,2.69,NC,1683044953
189,pacific grove,36.6177,-121.9166,285.05,85,75,2.68,US,1683044941
190,port sudan,19.6175,37.2164,300.77,51,5,5.15,SD,1683044953
191,newman,37.3138,-121.0208,286.61,90,100,1.34,US,1683044953
192,yarmouth,41.7057,-70.2286,289.15,68,75,5.14,US,1683044904
193,punta arenas,-53.15,-70.9167,282.21,66,40,19.55,CL,1683044954
194,happy valley-goose bay,53.3168,-60.3315,280.32,57,75,5.66,CA,1683044955
195,yatou,37.15,122.3833,285.81,74,45,6.33,CN,1683044955
196,illizi,26.4833,8.4667,309.04,12,8,3.79,DZ,1683044956
197,yanykurgan,43.915,67.2481,292.3,11,0,8.98,KZ,1683044956
198,haiku-pauwela,20.9219,-156.3051,294.84,82,0,3.09,US,1683044956
199,chifeng,42.2683,118.9636,290.88,53,71,3.62,CN,1683044956
200,zhigalovo,54.8097,105.1578,271.03,89,77,1.81,RU,1683044957
201,ashburton,-37.8626,145.0794,287.67,69,100,3.13,AU,1683044957
202,capitao poco,-1.7464,-47.0594,302.64,77,31,1.53,BR,1683044957
203,zheleznodorozhnyy,55.7503,38.0042,287.44,41,2,3.32,RU,1683044958
204,dinard,48.6314,-2.0614,294.06,62,0,6.17,FR,1683044958
205,miracema do tocantins,-9.5618,-48.3967,301.39,70,98,0.76,BR,1683044958
206,tomatlan,19.9333,-105.25,303.85,18,42,2.13,MX,1683044959
207,kingston,17.997,-76.7936,304.95,68,20,9.77,JM,1683044875
208,al jawf,29.5,38.75,301.73,11,0,3.94,SA,1683044959
209,mingora,34.7758,72.3625,288.77,86,88,0.74,PK,1683044884
210,crane,31.3974,-102.3501,296.49,54,100,6.28,US,1683044960
211,san luis de la loma,17.2706,-100.8939,303.46,51,0,2.41,MX,1683044961
212,hamilton,39.1834,-84.5333,286.61,59,75,10.8,US,1683044704
213,arcachon,44.5875,-1.0519,297.27,38,0,5.14,FR,1683044961
214,pathein,16.7833,94.7333,301.7,74,41,2.16,MM,1683044962
215,aasiaat,68.7098,-52.8699,269.54,74,6,4.53,GL,1683044962
216,cromer,52.9312,1.2989,285.83,66,53,3.34,GB,1683044832
217,laguna,38.421,-121.4238,285.43,80,75,7.2,US,1683044963
218,saint-philippe,-21.3585,55.7679,297.92,82,44,3.71,RE,1683044963
219,huruta,8.15,39.35,290.11,82,100,2.97,ET,1683044963
220,markha,62.1053,129.7269,273.13,64,0,2.0,RU,1683044963
221,greenville,35.6127,-77.3663,294.16,34,0,4.12,US,1683044964
222,guane,22.2025,-84.0875,301.87,54,100,3.58,CU,1683044964
223,ust-tsilma,65.441,52.1498,274.84,94,78,3.1,RU,1683044964
224,eyl,7.9803,49.8164,303.43,72,51,5.4,SO,1683044965
225,verkhnevilyuysk,63.4453,120.3167,270.59,93,100,1.66,RU,1683044965
226,piti village,13.4626,144.6933,300.64,83,0,3.6,GU,1683044965
227,zhangjiakou,40.81,114.8794,292.43,43,21,4.12,CN,1683044966
228,brookings,44.3114,-96.7984,284.51,41,0,10.29,US,1683044843
229,aripuana,-9.1667,-60.6333,304.71,56,95,1.22,BR,1683044966
230,lhasa,29.65,91.1,281.02,64,98,0.75,CN,1683044967
231,aioun,16.6614,-9.6149,315.43,5,13,1.95,MR,1683044967
232,xining,36.6167,101.7667,286.0,42,96,0.09,CN,1683044968
233,malango,-2.9627,119.9001,293.72,99,100,0.59,ID,1683044968
234,remire-montjoly,4.9167,-52.2667,303.17,66,75,6.17,GF,1683044968
235,rafsanjan,30.4067,55.9939,299.82,10,7,3.71,IR,1683044969
236,forster,-32.1667,152.5167,287.84,76,1,3.63,AU,1683044969
237,yaren,-0.5472,166.916,301.47,78,100,3.88,NR,1683044970
238,levuka,50.1834,-105.4011,289.99,25,75,8.23,CA,1683044970
239,chateauroux,46.8167,1.7,292.15,52,0,4.63,FR,1683044970
240,sola,-13.8833,167.55,301.19,78,27,8.83,VU,1683044970
241,kashmar,35.2383,58.4656,299.13,21,20,0.0,IR,1683044971
242,klyuchi,52.2667,79.1667,277.04,49,71,2.67,RU,1683044971
243,prineville,44.2999,-120.8345,284.83,87,100,2.57,US,1683044971
244,whitehorse,60.7161,-135.0538,282.58,57,75,7.72,CA,1683044811
245,oriximina,-1.7656,-55.8661,299.99,81,97,1.62,BR,1683044748
246,cody,44.5263,-109.0565,292.92,32,0,1.79,US,1683044972
247,blankenburg,51.7833,10.95,284.31,57,80,4.55,DE,1683044972
248,roma,43.2128,-75.4557,283.55,70,100,2.06,US,1683044973
249,labytnangi,66.6572,66.4183,275.59,99,100,6.87,RU,1683044785
250,ceeldheer,3.8488,47.1806,302.22,73,100,8.51,SO,1683044973
251,teshi old town,5.5836,-0.1072,303.46,70,40,5.14,GH,1683044974
252,cidra,18.1758,-66.1613,303.62,69,28,2.24,PR,1683044974
253,mount isa,-20.7333,139.5,291.02,32,4,8.75,AU,1683044974
254,aykhal,66.0,111.5,259.26,100,33,2.2,RU,1683044974
255,berdigestyakh,62.0989,126.6992,273.15,98,100,3.51,RU,1683044975
256,coquimbo,-29.9533,-71.3436,289.0,77,0,5.14,CL,1683044794
257,ribadavia,42.288,-8.1436,302.46,30,100,1.45,ES,1683044975
258,khandyga,62.6667,135.6,271.61,96,90,0.3,RU,1683044975
259,san patricio,28.017,-97.5169,299.35,66,100,7.12,US,1683044976
260,cerkezkoy,41.285,28.0003,289.25,41,0,7.72,TR,1683044976
261,el porvenir,13.7617,-87.3458,302.78,40,68,2.01,HN,1683044976
262,touros,-5.1989,-35.4608,302.97,61,20,5.18,BR,1683044977
263,al burayqah,30.4062,19.5739,293.16,74,99,8.94,LY,1683044977
264,murbad,19.25,73.4,301.78,54,6,2.18,IN,1683044977
265,nabire,-3.3667,135.4833,297.12,95,100,1.47,ID,1683044977
266,kedougou,12.5579,-12.1743,313.95,19,64,1.41,SN,1683044978
267,namibe,-15.1961,12.1522,297.83,77,3,5.21,AO,1683044978
268,jaisalmer,26.9147,70.9181,301.6,45,43,5.22,IN,1683044978
269,hermanus,-34.4187,19.2345,289.71,84,56,1.86,ZA,1683044979
270,ola,59.5833,151.2833,269.9,85,66,2.03,RU,1683044979
271,monmouth,40.3001,-74.1663,286.2,60,100,5.66,US,1683044725
272,xihe,31.6864,113.4659,294.35,82,100,4.2,CN,1683044980
273,mercedes,-34.6515,-59.4307,293.68,25,0,3.58,AR,1683044980
274,lerwick,60.1545,-1.1494,280.15,61,98,4.98,GB,1683044980
275,ribeira grande,38.5167,-28.7,289.14,77,40,8.23,PT,1683044980
276,kristiansund,63.1115,7.732,281.18,81,75,7.2,NO,1683044981
277,pindiga,9.9833,10.9333,302.76,21,37,5.12,NG,1683044981
278,port alfred,-33.5906,26.891,290.47,89,100,0.89,ZA,1683044981
279,skiathos,39.1623,23.4909,290.24,72,40,3.09,GR,1683044982
280,keflavik,64.0049,-22.5624,280.1,81,100,5.66,IS,1683044982
281,tazacorte,28.629,-17.9293,297.69,69,0,2.06,ES,1683044982
282,kaohsiung,22.6163,120.3133,299.84,77,40,2.57,TW,1683044687
283,nova xavantina,-14.6667,-52.35,304.02,44,0,1.73,BR,1683044983
284,mansa,29.9833,75.3833,297.04,64,100,3.67,IN,1683044983
285,bikenibeu village,1.3673,173.1241,301.13,83,75,0.0,KI,1683044983
286,bangassou,4.7413,22.8184,302.83,41,94,0.27,CF,1683044984
287,chinde,26.8418,88.0763,288.24,67,2,2.8,NP,1683044984
288,bafata,12.1667,-14.75,314.62,19,21,1.47,GW,1683044984
289,darjiling,27.0333,88.2667,281.59,82,7,2.81,IN,1683044985
290,labrador city,52.9463,-66.9114,277.1,70,100,4.63,CA,1683044985
291,kavieng,-2.5744,150.7967,300.81,81,76,4.85,PG,1683044985
292,bereket,39.2446,55.5154,292.9,54,14,7.15,TM,1683044985
293,cockburn town,21.4612,-71.1419,300.54,69,53,1.26,TC,1683044986
294,kuyeda,56.4311,55.5886,290.93,52,99,3.48,RU,1683044986
295,walvis bay,-22.9575,14.5053,290.68,72,0,5.14,,1683044986
296,paramonga,-10.6667,-77.8333,297.8,77,89,4.84,PE,1683044987
297,mitsamiouli,-11.3847,43.2844,300.35,70,41,6.11,KM,1683044987
298,dawson creek,55.7666,-120.2362,288.95,36,0,4.12,CA,1683044987
299,lompoc,34.6391,-120.4579,286.44,81,86,1.79,US,1683044987
300,taroa,8.7058,171.2275,300.56,82,100,9.3,MH,1683044988
301,boyolangu,-8.1181,111.8935,298.36,91,95,0.8,ID,1683044988
302,pisco,-13.7,-76.2167,297.18,64,1,4.12,PE,1683044988
303,zaozersk,69.4005,32.4476,271.0,70,55,8.2,RU,1683044989
304,castillos,-34.1667,-53.8333,291.06,45,9,3.86,UY,1683044989
305,okhotsk,59.3833,143.3,271.5,90,75,1.18,RU,1683044989
306,castro del rio,37.6912,-4.4806,305.27,17,100,2.12,ES,1683044991
307,plettenberg bay,-34.0527,23.3716,289.6,84,98,2.81,ZA,1683044992
308,kuala tungkal,-0.8167,103.4667,300.29,83,95,1.63,ID,1683044992
309,ati,13.2154,18.3353,309.97,13,96,2.66,TD,1683044992
310,huamachuco,-7.8,-78.0667,289.03,55,2,2.91,PE,1683044993
311,tuzamapan,19.4,-96.85,303.37,40,31,1.86,MX,1683044993
312,hotan,37.0997,79.9269,295.35,14,100,3.06,CN,1683044993
313,vilyuysk,63.7553,121.6247,271.35,82,100,3.48,RU,1683044994
314,mejit,10.2753,170.8646,300.23,81,100,9.37,MH,1683044994
315,dudinka,69.4058,86.1778,269.05,78,100,8.41,RU,1683044988
316,mincivan,39.0294,46.7185,290.01,57,65,1.6,AZ,1683044995
317,murmashi,68.8154,32.8115,275.38,43,0,5.0,RU,1683044995
318,howrah,22.5892,88.3103,303.15,66,40,4.12,IN,1683044698
319,playas,-2.6333,-80.3833,301.13,75,86,1.61,EC,1683044995
320,puerto lleras,3.0223,-73.4044,302.86,66,100,1.87,CO,1683044996
321,tubarjal,30.4999,38.216,301.13,14,0,4.12,SA,1683044996
322,kiama,-34.6833,150.8667,288.92,72,0,2.24,AU,1683044996
323,hammerfest,70.6634,23.6821,269.4,86,75,4.12,NO,1683044996
324,karapinar,37.716,33.5506,288.79,27,20,5.79,TR,1683044997
325,magdagachi,53.45,125.8,283.59,71,100,2.82,RU,1683044997
326,isla mujeres,21.2311,-86.731,301.18,62,100,4.71,MX,1683044997
327,dunedin,-45.8742,170.5036,290.97,55,77,3.17,NZ,1683044734
328,la passe,45.5549,-0.8967,295.28,57,56,5.07,FR,1683044998
329,udachny,66.4167,112.4,260.15,95,18,2.09,RU,1683044998
330,rajsamand,25.0667,73.8833,297.91,55,80,2.53,IN,1683044998
331,najera,42.4244,-2.734,301.26,18,33,2.83,ES,1683044999
332,crixas,-14.5489,-49.9692,304.15,38,0,0.45,BR,1683044999
333,ijebu-jesa,7.6833,4.8167,304.07,53,43,1.37,NG,1683044999
334,toliara,-23.35,43.6667,295.4,65,0,7.71,MG,1683044999
335,cold lake,54.4502,-110.2017,291.12,34,75,1.54,CA,1683045000
336,at taj,24.2049,23.2857,306.78,8,0,2.2,LY,1683045000
337,brokopondo,4.75,-55.1667,302.21,65,71,2.53,SR,1683045000
338,beidao,34.5686,105.8933,289.42,75,100,1.59,CN,1683045001
339,san antonio de pale,-1.4014,5.6325,300.69,76,100,1.8,GQ,1683045001
340,polyarnyy,69.1989,33.4478,271.27,70,42,7.49,RU,1683045002
341,novaya mayna,54.15,49.75,285.25,90,97,2.84,RU,1683045003
342,volchikha,52.0333,80.3833,274.05,63,36,3.02,RU,1683045003
343,harstad,68.799,16.5293,273.81,89,100,9.83,NO,1683045004
344,kapuskasing,49.4169,-82.4331,281.2,81,75,6.17,CA,1683045000
345,kondopoga,62.2057,34.2614,281.97,63,100,4.94,RU,1683045005
346,souillac,-20.5167,57.5167,297.36,94,75,0.0,MU,1683045006
347,luena,-11.7833,19.9167,298.25,44,44,3.6,AO,1683045006
348,otsuki,35.6,138.9333,282.5,83,6,1.34,JP,1683045006
349,chala,-7.5833,31.2667,287.84,97,42,1.33,TZ,1683045007
350,cole harbour,44.6724,-63.4751,279.92,92,100,6.71,CA,1683045007
351,weno,7.4515,151.8468,300.12,89,100,3.6,FM,1683045008
352,hadibu,12.65,54.0333,302.54,77,68,0.44,YE,1683045008
353,bela vista de goias,-16.9728,-48.9533,300.79,42,0,1.37,BR,1683045009
354,guatrache,-37.6678,-63.5302,291.76,23,0,3.11,AR,1683045009
355,banmankhi,25.8833,87.1833,299.96,49,13,2.55,IN,1683045009
356,kidal,18.4411,1.4078,313.78,6,23,5.01,ML,1683045010
357,sungailiat,-1.85,106.1333,300.61,78,42,1.62,ID,1683045010
358,wysokie mazowieckie,52.9166,22.5171,285.96,80,100,2.04,PL,1683045010
359,jaru,-10.4389,-62.4664,303.1,70,7,1.28,BR,1683045011
360,alofi,-19.0595,-169.9187,297.09,83,100,7.72,NU,1683045011
361,rio grande,-32.035,-52.0986,290.21,82,100,4.11,BR,1683045012
362,krasnoturansk,54.3186,91.5639,274.21,69,94,2.61,RU,1683045012
363,parabel',58.6978,81.4825,275.69,73,100,2.73,RU,1683045012
364,puerto deseado,-47.7503,-65.8938,286.09,42,9,11.97,AR,1683045013
365,oranjemund,-28.55,16.4333,287.09,91,72,4.05,,1683045015
366,miquelon,47.0975,-56.3814,278.15,71,100,4.85,PM,1683045016
367,enewetak,11.3474,162.3373,300.23,79,99,9.15,MH,1683045016
368,ondjiva,-17.0667,15.7333,304.17,18,8,3.09,AO,1683045017
369,quang ngai,15.1167,108.8,297.15,93,89,1.74,VN,1683045017
370,chagoda,59.164,35.3285,284.84,57,99,5.77,RU,1683045018
371,marsa alam,25.0757,34.8918,298.04,54,0,2.5,EG,1683045018
372,christchurch,-43.5333,172.6333,290.9,62,22,5.14,NZ,1683044983
373,nova sintra,14.8667,-24.7167,294.28,78,27,5.9,CV,1683045019
374,vorkuta,67.5,64.0,274.37,86,100,10.17,RU,1683045019
375,biograd na moru,43.9433,15.4519,293.57,72,100,7.22,HR,1683045019
376,sisimiut,66.9395,-53.6735,274.12,72,16,1.22,GL,1683045020
377,chui,-33.6971,-53.4616,291.43,47,56,4.28,UY,1683045020
378,coria,39.9879,-6.5377,305.07,17,100,2.73,ES,1683045020
379,murygino,58.7383,49.4582,280.69,84,100,1.9,RU,1683045021
380,cosala,24.4125,-106.6908,302.89,26,98,1.83,MX,1683045021
381,bardai,11.65,7.2333,309.73,11,23,5.52,NG,1683045021
382,popondetta,-8.7537,148.2534,296.78,98,100,1.06,PG,1683045022
383,afaahiti,-17.75,-149.2833,298.08,83,100,7.62,PF,1683045022
384,kilju,40.9642,129.3278,284.71,65,97,1.83,KP,1683045022
385,embi,48.8264,58.1442,291.72,32,84,7.66,KZ,1683045023
386,la'ie,21.6477,-157.9253,296.13,82,16,1.79,US,1683045023
387,rikaze,29.25,88.8833,278.75,54,84,0.54,CN,1683045023
388,juan griego,11.0817,-63.9655,303.22,66,14,8.75,VE,1683044924
389,richards bay,-28.783,32.0377,294.68,86,36,2.17,ZA,1683045024
390,gbarnga,6.9956,-9.4722,308.1,34,85,2.6,LR,1683045024
391,island harbour,50.724,-1.2758,289.9,84,99,5.39,GB,1683045025
392,chonchi,-42.6128,-73.8092,284.33,69,59,1.84,CL,1683045025
393,waddan,29.1614,16.139,303.0,25,58,4.71,LY,1683045026
394,kirn,49.7833,7.45,288.96,56,68,4.3,DE,1683045027
395,skowhegan,44.7651,-69.7192,288.36,65,99,4.51,US,1683045027
396,gizo,-8.103,156.8419,301.21,79,100,2.96,SB,1683045028
397,chulucanas,-5.0925,-80.1625,302.57,66,67,1.53,PE,1683045028
398,vallenar,-28.5708,-70.7581,298.02,33,0,2.82,CL,1683045028
399,alesund,62.4723,6.1549,282.64,73,20,4.63,NO,1683045029
400,wakkanai,45.4094,141.6739,281.71,79,24,12.47,JP,1683045030
401,jinjiang,24.8198,118.5741,294.27,86,3,0.97,CN,1683045030
402,soio,-6.1349,12.3689,300.25,82,67,3.16,AO,1683045030
403,yuzhno-kurilsk,44.0306,145.8556,278.13,89,5,5.49,RU,1683045031
404,cidreira,-30.1811,-50.2056,292.49,93,100,8.02,BR,1683045031
405,padangsidempuan,1.3667,99.2667,296.04,99,100,0.57,ID,1683045032
406,axim,4.8699,-2.2405,302.43,72,78,4.64,GH,1683045032
407,ebon,4.582,168.6964,300.43,81,100,3.83,MH,1683045033
408,satte,36.0667,139.7167,289.27,38,3,0.92,JP,1683045033
409,monchegorsk,67.9397,32.8739,276.81,76,81,3.36,RU,1683045034
410,yuanping,38.7153,112.7575,291.9,47,96,0.91,CN,1683045035
411,panaba,21.2833,-88.2667,306.86,39,100,3.77,MX,1683045035
412,colonia,50.9333,6.95,287.57,47,20,6.17,DE,1683045037
413,ergli,56.8975,25.6367,277.49,87,99,5.13,LV,1683045038
414,avsallar,36.616,31.7806,291.38,66,6,2.16,TR,1683045039
415,mermoz boabab,14.7065,-17.4758,300.46,73,0,5.14,SN,1683045039
416,indramayu,-6.3264,108.32,300.56,80,68,1.87,ID,1683045039
417,shahr-e babak,30.1165,55.1186,294.99,14,17,4.03,IR,1683045040
418,atherton,53.5237,-2.4935,290.14,56,100,1.79,GB,1683045040
419,nikolayevsk-on-amure,53.1406,140.73,272.79,97,100,1.75,RU,1683045040
420,ketchikan,55.3422,-131.6461,285.14,71,89,0.4,US,1683045041
421,tommot,58.9564,126.2925,274.42,98,100,3.01,RU,1683045041
422,mil'kovo,55.6078,37.7956,287.42,52,10,3.2,RU,1683045041
423,inhapim,-19.5492,-42.12,298.48,52,3,1.61,BR,1683045042
424,smithers,54.7804,-127.1743,280.33,70,0,2.06,CA,1683045021
425,ciudad madero,22.2667,-97.8333,301.51,69,40,3.37,MX,1683045042
426,norton,-17.8833,30.7,290.98,39,50,0.88,ZW,1683045043
427,tura,25.5198,90.2201,296.22,66,65,1.44,IN,1683045043
428,sainte-rose,16.3324,-61.6979,303.17,62,75,5.14,GP,1683045044
429,bintulu,3.1667,113.0333,298.38,100,20,2.06,MY,1683045044
430,margate,51.3813,1.3862,285.2,66,58,2.24,GB,1683044796
431,hudson,40.7168,-74.0663,285.98,70,75,8.05,US,1683045044
432,ta`u,-14.2336,-169.5144,300.44,80,64,9.58,AS,1683045045
433,morinville,53.8001,-113.652,293.48,39,75,8.23,CA,1683045045
434,pangoa,-12.1167,-73.0,303.1,54,33,1.46,PE,1683045045
435,jogeva,58.7467,26.3939,279.2,82,100,6.01,EE,1683045046
436,tago,9.0211,126.2317,298.44,91,100,1.48,PH,1683045046
437,sinop,41.7711,34.8709,282.39,88,27,0.91,TR,1683045046
438,mount gambier,-37.8333,140.7667,284.53,74,98,8.82,AU,1683045047
439,segovia,41.1667,-4.0,297.83,25,100,0.58,ES,1683045047
440,ilomantsi,62.6716,30.9328,279.09,90,100,5.16,FI,1683045047
441,fort-shevchenko,44.5086,50.263,286.74,97,100,6.26,KZ,1683045048
442,choibalsan,48.0667,114.5,279.64,31,61,5.03,MN,1683045048
443,chibougamau,49.9168,-74.3659,279.94,76,100,5.66,CA,1683045049
444,rawson,-43.3002,-65.1023,287.51,43,0,2.69,AR,1683045049
445,sangkhla buri,15.1555,98.4536,297.19,94,90,0.61,TH,1683045049
446,zheleznogorsk-ilimskiy,56.5768,104.1217,272.5,98,100,3.64,RU,1683045050
447,kuraymah,18.55,31.85,304.34,6,4,3.79,SD,1683045050
448,zaragoza,41.6561,-0.8773,304.18,14,0,1.34,ES,1683045050
449,dzhambeyty,50.2536,52.595,293.18,28,77,6.28,KZ,1683045051
450,mandalgovi,45.7625,106.2708,282.88,25,79,3.2,MN,1683045051
451,alaghsas,17.0187,8.0168,313.09,11,1,3.09,NE,1683045051
452,suva,-18.1416,178.4415,298.86,69,75,4.63,FJ,1683045052
453,bandar abbas,27.1865,56.2808,301.14,69,0,2.06,IR,1683045052
454,saurimo,-9.6608,20.3916,292.93,88,92,1.55,AO,1683045052
455,puerto lempira,15.2667,-83.7667,304.23,66,40,3.09,HN,1683045053
456,qarazhal,48.0078,70.7903,279.15,33,3,6.43,KZ,1683045053
457,cacapava do sul,-30.5122,-53.4914,285.13,97,100,4.04,BR,1683045053
458,sabang,5.8933,95.3214,301.46,78,100,3.74,ID,1683045054
459,kikwit,-5.041,18.8162,296.12,87,100,1.02,CD,1683045054
460,kolonia,50.9333,6.95,287.57,47,20,6.17,DE,1683045054
461,kolokani,13.5728,-8.0339,310.84,17,76,1.89,ML,1683045055
462,nasir,15.5894,32.5634,307.05,6,34,5.12,SD,1683045055
463,nagarote,12.2659,-86.5647,305.97,38,37,3.99,NI,1683045055
464,battagram,34.6772,73.0233,287.56,82,90,0.55,PK,1683045055
465,tabou,4.423,-7.3528,302.34,72,43,4.54,CI,1683045056
466,mournies,35.4764,24.0092,291.39,88,75,6.17,GR,1683045056
467,sinabang,2.4803,96.3801,300.01,83,100,1.6,ID,1683045056
468,nuku'alofa,-21.1333,-175.2,297.34,73,100,11.2,TO,1683045056
469,birao,10.2849,22.7882,304.37,39,98,3.13,CF,1683045057
470,kumsi,14.0667,75.4,297.12,66,95,2.41,IN,1683045057
471,machico,32.7,-16.7667,300.93,64,20,10.29,PT,1683045057
472,sosnovo-ozerskoye,52.5249,111.5418,269.21,76,5,4.7,RU,1683045058
473,santiago de cao,-7.9589,-79.2392,299.22,69,37,6.17,PE,1683045058
474,mugia,43.1041,-9.2179,299.21,73,100,2.27,ES,1683045058
475,altamira,-3.2033,-52.2064,304.2,70,40,1.54,BR,1683045059
476,velky meder,47.858,17.7688,290.98,87,100,1.53,SK,1683045059
477,kaoma,-14.7833,24.8,292.55,48,1,2.03,ZM,1683045060
478,khanty-mansiysk,61.0042,69.0019,282.21,43,0,3.13,RU,1683045060
479,kigoma,-4.8769,29.6267,298.48,73,75,3.6,TZ,1683045063
480,amga,60.8953,131.9608,274.0,87,100,1.36,RU,1683045063
481,quesnel,52.9999,-122.5029,284.43,82,0,1.54,CA,1683044893
482,nuuk,64.1835,-51.7216,277.49,52,20,4.12,GL,1683045064
483,adrar,20.5022,-10.0711,313.29,5,0,3.54,MR,1683045065
484,lewiston orchards,46.3804,-116.9754,291.21,62,0,0.0,US,1683045065
485,fada,9.5667,8.3,304.51,34,88,3.1,NG,1683045065
486,turbat,26.0023,63.044,303.12,50,79,4.13,PK,1683045066
487,lobau,51.1,14.6667,288.25,85,100,3.12,DE,1683045066
488,minzhu,43.7286,127.3447,284.58,47,74,5.18,CN,1683045066
489,darwin,-12.4611,130.8418,299.14,54,99,3.6,AU,1683045030
490,grand falls-windsor,48.9332,-55.6649,282.87,45,69,4.02,CA,1683045024
491,kinango,-4.1372,39.3153,299.21,82,72,3.39,KE,1683045067
492,erbaa,40.6689,36.5675,288.2,85,50,1.99,TR,1683045068
493,raichur,16.2,77.3667,299.96,68,96,6.95,IN,1683045069
494,kenai,60.5544,-151.2583,276.56,80,100,3.09,US,1683045069
495,bangar,16.8936,120.4243,300.12,74,8,1.93,PH,1683045069
496,villa gesell,-37.2639,-56.973,289.85,49,0,3.45,AR,1683045007
497,sallisaw,35.4604,-94.7875,293.97,30,0,5.14,US,1683045070
498,rongelap,11.1635,166.8941,300.31,78,98,9.51,MH,1683045070
499,ghat,24.9647,10.1728,301.22,25,54,13.63,LY,1683045070
500,whangarei,-35.7317,174.3239,292.11,97,100,2.4,NZ,1683045071
501,saldanha,-33.0117,17.9442,291.18,88,18,6.15,ZA,1683045071
502,korla,41.7597,86.1469,286.61,38,94,10.88,CN,1683045072
503,luderitz,-26.6481,15.1594,288.38,69,44,5.56,,1683045072
504,yeniseysk,58.4497,92.1703,274.06,92,100,1.61,RU,1683045072
505,coyhaique,-45.5752,-72.0662,283.12,53,75,3.09,CL,1683045073
506,kapa'a,22.0752,-159.319,295.33,90,40,1.54,US,1683045073
507,hasaki,35.7333,140.8333,284.94,55,2,2.12,JP,1683045073
508,lucea,18.451,-78.1736,303.07,71,30,4.68,JM,1683045074
509,bairnsdale,-37.8333,147.6167,284.29,92,58,3.11,AU,1683045074
510,rio gallegos,-51.6226,-69.2181,283.18,40,75,9.77,AR,1683045075
511,ixtapa,20.7,-105.2,298.72,53,0,1.54,MX,1683045075
512,mao,39.8885,4.2658,293.46,37,0,8.23,ES,1683045075
513,maceio,-9.6658,-35.7353,303.84,62,20,4.12,BR,1683045076
514,fort bragg,35.139,-79.006,293.96,34,0,10.29,US,1683045076
515,pasni,25.2631,63.471,300.43,76,1,4.59,PK,1683045076
516,carmelo,-33.9892,-58.2856,290.78,33,2,4.85,UY,1683045077
517,sao miguel do araguaia,-13.275,-50.1628,304.61,47,0,1.05,BR,1683045077
518,waingapu,-9.6567,120.2641,299.12,87,60,5.38,ID,1683045078
519,yamada,39.4667,141.95,280.24,80,0,2.7,JP,1683045078
520,moussoro,13.6408,16.4901,308.98,10,58,3.93,TD,1683045078
521,sturgeon bay,44.8342,-87.377,280.13,65,100,9.77,US,1683044829
522,port hueneme,34.1478,-119.1951,288.26,74,75,3.6,US,1683045079
523,as sulayyil,20.4607,45.5779,307.29,18,16,6.88,SA,1683045079
524,lugovoy,42.9472,72.7644,281.15,50,1,2.93,KZ,1683045079
525,silver city,32.7701,-108.2803,293.13,32,0,4.02,US,1683045080
526,baskale,38.0453,44.0172,276.85,53,27,2.68,TR,1683045080
527,necochea,-38.5473,-58.7368,289.2,43,0,2.8,AR,1683045080
528,imbituba,-28.24,-48.6703,299.74,71,32,3.44,BR,1683045081
529,klaksvik,62.2266,-6.589,278.66,66,100,3.88,FO,1683045081
530,valdivia,-39.8142,-73.2459,284.2,65,54,2.26,CL,1683044947
531,culiacan,24.7994,-107.3897,297.97,61,75,5.14,MX,1683044815
532,egilsstadir,65.2653,-14.3948,278.1,48,75,2.57,IS,1683045082
533,meiktila,20.8667,95.8667,305.1,37,85,2.18,MM,1683045082
534,thinadhoo,0.5333,72.9333,299.72,84,100,7.88,MV,1683045083
535,busembatia,0.7697,33.6131,293.07,87,89,1.15,UG,1683045083
536,kaspiyskiy,45.3929,47.3707,290.13,55,100,4.31,RU,1683045084
537,nanao,37.05,136.9667,283.31,78,51,1.35,JP,1683045084
538,puerto varas,-41.3195,-72.9854,283.27,81,75,4.63,CL,1683045084
539,baharly,38.4362,57.4316,295.1,49,45,4.58,TM,1683045085
540,caninde,-4.3589,-39.3117,302.94,63,77,1.18,BR,1683045085
541,shostka,51.863,33.4698,283.04,61,77,3.47,UA,1683045086
542,caleta de carquin,-11.0925,-77.6267,297.75,74,52,5.05,PE,1683045086
543,kem',64.9555,34.5793,274.18,100,100,3.04,RU,1683045087
544,beboto,8.2668,16.939,306.07,31,85,2.62,TD,1683045088
545,smara,26.7384,-11.6719,309.11,9,2,6.31,EH,1683045088
546,ginir,7.1333,40.7,289.55,85,69,0.1,ET,1683045088
547,saint-joseph,-21.3667,55.6167,297.36,84,29,3.28,RE,1683045088
548,yerofey pavlovich,53.9667,121.9667,279.97,93,100,4.29,RU,1683045089
549,mokhsogollokh,61.4681,128.9203,273.18,99,100,2.18,RU,1683045089
550,corner brook,48.9667,-57.9484,283.24,57,100,4.93,CA,1683045011
551,sao vicente,-23.9631,-46.3919,304.97,78,75,2.68,BR,1683045090
552,port-vila,-17.7338,168.3219,298.97,87,11,4.98,VU,1683045051
553,ulsteinvik,62.3432,5.8487,282.63,72,100,3.13,NO,1683045090
554,obo,5.3998,26.4869,298.66,57,64,1.89,CF,1683045091
555,posto fiscal rolim de moura,-13.0833,-62.2667,307.25,45,1,1.16,BR,1683045091
556,el fasher,13.6279,25.3494,305.95,11,20,3.43,SD,1683045092
557,dwarka,22.2394,68.9678,300.63,73,0,4.11,IN,1683045093
558,aur,8.1499,171.1687,300.69,83,100,8.76,MH,1683045093
559,sharlyk,52.9167,54.75,292.15,55,100,6.39,RU,1683045093
560,trinidad,-14.8333,-64.9,303.14,74,75,4.63,BO,1683045094
561,acarau,-2.8856,-40.12,302.63,69,38,5.08,BR,1683045094
562,fale old settlement,-9.3852,-171.2468,301.58,78,95,7.59,TK,1683045094
563,nagqu,31.5,92.0,270.36,93,98,0.68,CN,1683045094
564,hilo,19.7297,-155.09,294.05,83,0,3.6,US,1683045095
565,tongliao,43.6125,122.2653,290.09,38,63,11.16,CN,1683045095
566,camana,-16.6228,-72.7111,295.58,71,45,4.72,PE,1683045095
567,lander,42.833,-108.7307,290.26,39,0,3.6,US,1683045096
568,grand ledge,42.7534,-84.7464,280.31,70,100,8.75,US,1683045096
569,mudanjiang,44.5833,129.6,286.56,40,51,7.45,CN,1683045096
570,belmonte,-15.8631,-38.8828,299.62,77,67,3.47,BR,1683045097
571,mingguang,32.7802,117.9638,295.01,62,100,3.34,CN,1683045097
572,iowa park,33.9515,-98.6687,295.9,42,0,6.69,US,1683045097
573,adre,13.4667,22.2,301.89,35,95,1.63,TD,1683045097
574,rosetta,31.4044,30.4164,292.04,66,0,6.67,EG,1683045098
575,kone,-21.0595,164.8658,296.41,93,73,1.99,NC,1683045098
576,papao,-17.75,-149.55,298.97,80,100,7.81,PF,1683045098
577,daru,-9.0763,143.2092,299.48,91,100,5.17,PG,1683045099
578,maxixe,-23.8597,35.3472,298.05,78,20,2.57,MZ,1683045099
579,mili,6.0815,171.735,300.27,81,100,5.08,MH,1683045099
580,vikarabad,17.3333,77.9,298.43,72,36,6.46,IN,1683045100
581,male,4.1748,73.5089,302.12,84,75,11.32,MV,1683045026
